name,latitude,longitude
LA SUITE LOUNGE & BAR,45.415801,6.63173
ANNAPURNA,45.401057,6.637759
AU ROND POINT DES PISTES,45.415955,6.631043
CARLINA,45.413425,6.635479
COURCHENEIGE,45.405011,6.633811
L EQUIPE,45.415345,6.635227
LE 1850,45.416652,6.62791